,City,Country,Lat,Long,Max Temp,Humidity,Cloudiness,Wind Speed,Date
0,New Norfolk,AU,-42.78,147.06,53.01,75,93,1.01,1603018679
1,Vila Velha,BR,-20.33,-40.29,68.0,94,75,5.82,1603018500
2,Aquiraz,BR,-3.9,-38.39,84.2,58,40,23.04,1603018679
3,Harper,LR,4.38,-7.72,80.2,84,57,8.95,1603018680
4,Marsh Harbour,BS,26.54,-77.06,81.9,78,100,16.62,1603018680
5,Hofn,IS,64.25,-15.21,43.68,70,96,3.24,1603018680
6,Hobart,AU,-42.88,147.33,55.4,58,75,14.99,1603018409
7,Nikolskoye,RU,59.7,30.79,39.2,69,75,8.95,1603018680
8,Arraial do Cabo,BR,-22.97,-42.03,69.8,88,54,5.82,1603018680
9,Pitsunda,GE,43.16,40.34,77.0,50,27,8.95,1603018680
10,Kapaa,US,22.08,-159.32,73.0,78,90,8.16,1603018681
11,Portland,US,45.52,-122.68,55.99,83,99,1.01,1603018013
12,Airai,TL,-8.93,125.41,63.68,96,80,0.69,1603018681
13,Busselton,AU,-33.65,115.33,63.36,76,11,15.14,1603018681
14,Avarua,CK,-21.21,-159.78,71.6,83,96,6.93,1603018681
15,Rikitea,PF,-23.12,-134.97,73.92,81,96,20.27,1603018681
16,Saskylakh,RU,71.92,114.08,15.01,97,89,3.69,1603018681
17,Ushuaia,AR,-54.8,-68.3,41.0,86,40,6.93,1603018648
18,Guerrero Negro,MX,27.98,-114.06,69.06,78,11,7.02,1603018682
19,Bluff,NZ,-46.6,168.33,46.89,73,96,1.45,1603018682
20,Katobu,ID,-4.94,122.53,78.62,71,70,5.1,1603018682
21,Yekaterinogradskaya,RU,43.76,44.23,78.8,27,0,5.84,1603018682
22,Jamestown,US,42.1,-79.24,48.99,49,90,11.41,1603018682
23,Ardakān,IR,32.31,54.02,75.2,5,0,6.93,1603018683
24,Shīeli,KZ,44.17,66.75,72.9,19,0,8.66,1603018683
25,Westport,US,41.14,-73.36,42.8,81,1,6.93,1603018383
26,Zemio,CF,5.03,25.14,79.97,82,58,6.06,1603018683
27,Satu Mare,RO,47.8,22.88,45.0,100,100,9.17,1603018683
28,Moïssala,TD,8.34,17.77,93.78,47,26,2.3,1603018683
29,Mahébourg,MU,-20.41,57.7,80.6,54,20,12.75,1603018684
30,Bengkulu,ID,-3.8,102.27,79.97,76,24,2.15,1603018684
31,Vólakas,GR,41.32,24.0,72.0,43,20,8.05,1603018684
32,Punta Arenas,CL,-53.15,-70.92,39.2,80,99,4.7,1603018684
33,Quirinópolis,BR,-18.45,-50.45,78.48,64,9,8.84,1603018684
34,Saint George,US,37.1,-113.58,57.2,19,1,0.98,1603018674
35,Santa Maria,BR,-29.68,-53.81,66.58,67,80,5.64,1603018684
36,Erzin,TR,36.96,36.2,80.01,75,0,4.0,1603018684
37,Shahe,CN,39.27,113.55,48.96,44,7,0.49,1603018619
38,Tasiilaq,GL,65.61,-37.64,48.2,31,57,13.87,1603018685
39,Qaanaaq,GL,77.48,-69.36,34.86,83,99,8.81,1603018685
40,Nanortalik,GL,60.14,-45.24,39.65,85,100,4.07,1603018685
41,Asău,RO,46.43,26.4,57.0,58,44,5.57,1603018685
42,Bredasdorp,ZA,-34.53,20.04,66.2,59,100,6.93,1603018685
43,Pacifica,US,37.61,-122.49,64.0,72,20,8.05,1603018685
44,North Bend,US,43.41,-124.22,52.0,100,75,4.7,1603018686
45,Pueblo,US,38.25,-104.61,44.6,65,1,8.05,1603018686
46,Cidreira,BR,-30.18,-50.21,67.33,75,87,13.38,1603018691
47,Hay River,CA,60.82,-115.8,26.6,73,75,11.41,1603018691
48,Bontang,ID,0.13,117.5,81.27,80,98,9.37,1603018691
49,Ribeira Grande,PT,38.52,-28.7,60.8,63,20,6.93,1603018691
50,Cape Town,ZA,-33.93,18.42,69.01,49,75,5.82,1603018691
51,Pisco,PE,-13.7,-76.22,62.6,82,90,8.05,1603018692
52,Ilulissat,GL,69.22,-51.1,35.6,93,91,4.7,1603018692
53,Butaritari,KI,3.07,172.79,81.57,77,65,18.79,1603018692
54,Puerto Ayora,EC,-0.74,-90.35,70.0,89,99,5.99,1603018692
55,Hasaki,JP,35.73,140.83,59.0,82,20,6.93,1603018692
56,Atuona,PF,-9.8,-139.03,76.68,80,7,16.06,1603018692
57,Albany,US,42.6,-73.97,35.01,78,20,3.47,1603018692
58,Ranong,TH,9.97,98.63,78.8,100,75,1.12,1603018693
59,Port Elizabeth,ZA,-33.92,25.57,69.8,49,20,24.16,1603018693
60,Kavaratti,IN,10.57,72.64,81.68,75,7,11.05,1603018693
61,Divnomorskoye,RU,44.5,38.14,72.3,71,100,6.17,1603018693
62,Provideniya,RU,64.38,-173.3,35.35,87,98,2.35,1603018693
63,Cockburn Town,TC,21.46,-71.14,81.86,80,60,18.68,1603018693
64,Kavieng,PG,-2.57,150.8,83.07,75,86,12.68,1603018693
65,Hermanus,ZA,-34.42,19.23,66.99,61,97,5.01,1603018694
66,Chui,UY,-33.7,-53.46,63.82,89,42,7.05,1603018694
67,Erbil,IQ,36.19,44.01,89.6,11,0,6.93,1603018480
68,Kununurra,AU,-15.77,128.73,89.6,52,90,12.75,1603018694
69,Wanning,CN,18.8,110.4,78.26,87,100,19.82,1603018694
70,Samarinda,ID,-0.5,117.15,76.57,90,67,3.31,1603018694
71,Guía de Isora,ES,28.21,-16.78,75.0,73,75,10.29,1603018695
72,Tuktoyaktuk,CA,69.45,-133.04,12.81,91,2,6.6,1603018695
73,Rincon,US,32.3,-81.24,57.2,76,1,10.29,1603018695
74,Dikson,RU,73.51,80.55,21.09,92,0,27.67,1603018695
75,Naze,JP,28.37,129.48,75.2,94,75,23.04,1603018695
76,Yellowknife,CA,62.46,-114.35,23.0,92,90,6.93,1603018695
77,Pouembout,NC,-21.13,164.9,68.22,79,24,5.86,1603018695
78,Hilo,US,19.73,-155.09,73.4,83,1,3.36,1603018615
79,Bethel,US,41.37,-73.41,37.99,68,75,2.66,1603018696
80,Grindavik,IS,63.84,-22.43,44.6,87,75,17.22,1603018696
81,Rawson,AR,-43.3,-65.1,60.26,33,0,10.38,1603018696
82,Vaini,TO,-21.2,-175.2,69.8,83,40,10.29,1603018696
83,Southbridge,US,42.08,-72.03,42.8,52,1,3.36,1603018399
84,Noyabrsk,RU,63.2,75.45,27.18,92,100,24.87,1603018696
85,Quatre Cocos,MU,-20.21,57.76,81.0,54,20,12.75,1603018508
86,Mataura,NZ,-46.19,168.86,41.07,90,100,0.85,1603018697
87,Lebu,CL,-37.62,-73.65,48.16,93,14,1.66,1603018697
88,Flinders,AU,-34.58,150.86,61.0,85,100,4.0,1603018697
89,Gorom-Gorom,BF,14.44,-0.24,97.68,27,20,9.01,1603018697
90,Te Anau,NZ,-45.42,167.72,44.83,88,100,1.99,1603018702
91,Jejūri,IN,18.28,74.17,82.49,61,41,3.38,1603018702
92,Port Alfred,ZA,-33.59,26.89,68.81,64,81,20.33,1603018703
93,Don Luan,VN,11.53,106.92,72.3,97,100,6.6,1603018703
94,Sémbé,CG,1.65,14.58,87.22,61,71,2.1,1603018703
95,Dryden,CA,49.78,-92.75,28.4,68,90,8.05,1603018459
96,Ponta do Sol,PT,32.67,-17.1,69.8,88,75,26.4,1603018703
97,Broome,US,42.25,-75.83,39.2,64,1,5.82,1603018703
98,Narsaq,GL,60.92,-46.05,33.8,86,75,3.36,1603018703
99,Mount Isa,AU,-20.73,139.5,93.2,17,33,10.29,1603018703
100,Kumul,CN,42.8,93.45,55.63,31,5,7.74,1603018540
101,Raja,SS,8.46,25.68,88.47,56,82,2.73,1603018704
102,Baykit,RU,61.67,96.37,40.42,88,100,9.22,1603018704
103,Alofi,NU,-19.06,-169.92,78.8,94,84,6.93,1603018704
104,Kholmogory,RU,64.22,41.66,37.4,93,90,6.71,1603018704
105,Saint-Philippe,RE,-21.36,55.77,80.6,65,75,17.22,1603018704
106,Castro,BR,-24.79,-50.01,56.34,87,94,8.21,1603018704
107,Eskil,TR,38.4,33.41,78.6,19,64,4.41,1603018705
108,Simeonovgrad,BG,42.03,25.83,66.0,48,40,4.7,1603018705
109,Torbay,CA,47.67,-52.73,51.01,100,90,11.41,1603018705
110,Lagoa,PT,39.05,-27.98,61.21,64,100,15.52,1603018705
111,Vardø,NO,70.37,31.11,39.67,70,61,8.93,1603018705
112,Sirte,LY,31.21,16.59,74.7,67,100,11.52,1603018507
113,Lagos,NG,6.58,3.75,84.2,79,75,8.05,1603018588
114,Hamilton,US,39.18,-84.53,52.0,61,90,6.93,1603018705
115,Mitchell,US,43.71,-98.03,30.2,58,1,13.87,1603018495
116,Pandan,PH,14.05,124.17,82.08,84,94,12.95,1603018706
117,Bathsheba,BB,13.22,-59.52,77.0,88,20,4.7,1603018706
118,Haines Junction,CA,60.75,-137.51,18.9,80,77,1.19,1603018706
119,Derzhavīnsk,KZ,51.1,66.32,46.49,47,0,5.59,1603018706
120,Bowen,AU,-20.02,148.23,69.8,68,0,10.42,1603018706
121,Lüderitz,NA,-26.65,15.16,74.68,42,8,24.52,1603018706
122,Arona,ES,28.1,-16.68,75.0,73,75,10.29,1603018706
123,Clyde River,CA,70.47,-68.59,28.4,86,1,3.36,1603018706
124,Fortuna,US,40.6,-124.16,48.2,100,1,4.7,1603018682
125,Douentza,ML,15.0,-2.95,100.98,11,5,15.3,1603018449
126,Touros,BR,-5.2,-35.46,77.0,83,40,8.05,1603018707
127,Kaitangata,NZ,-46.28,169.85,48.99,86,99,1.99,1603018707
128,Nuoro,IT,40.32,9.33,71.6,43,40,4.7,1603018707
129,Kalur Kot,PK,32.16,71.26,95.52,10,0,5.53,1603018707
130,Nome,US,64.5,-165.41,35.6,93,90,3.36,1603018707
131,Giugliano in Campania,IT,40.93,14.19,66.99,63,20,3.36,1603018708
132,Greymouth,NZ,-42.47,171.2,52.9,95,100,6.78,1603018708
133,George Town,MY,5.41,100.34,86.0,74,20,4.7,1603018414
134,Katherine,AU,-14.47,132.27,89.6,35,72,1.12,1603018708
135,Teya,RU,60.38,92.63,29.77,93,91,12.33,1603018708
136,Barra Patuca,HN,15.8,-84.28,78.93,85,100,8.12,1603018714
137,Neckargemünd,DE,49.39,8.79,52.0,97,12,5.06,1603018714
138,São Filipe,CV,14.9,-24.5,80.65,78,26,3.29,1603018714
139,Khovd,MN,48.01,91.64,42.17,56,87,2.06,1603018714
140,Ihosy,MG,-22.4,46.12,81.21,41,16,8.43,1603018714
141,Saldanha,ZA,-33.01,17.94,69.8,49,96,10.29,1603018714
142,Tevaitoa,PF,-16.78,-151.5,79.7,78,9,8.39,1603018714
143,La Ronge,CA,55.1,-105.28,23.0,85,90,10.29,1603018715
144,Santa Marta,CO,11.24,-74.2,80.01,81,88,1.01,1603018715
145,Mar del Plata,AR,-38.0,-57.56,66.0,93,10,6.93,1603018598
146,Mahajanga,MG,-15.72,46.32,95.0,26,0,8.05,1603018715
147,Nuuk,GL,64.18,-51.72,41.0,93,75,8.05,1603018715
148,Beloha,MG,-25.17,45.05,83.95,41,0,16.64,1603018715
149,Thompson,CA,55.74,-97.86,24.8,92,90,5.82,1603018715
150,Carnarvon,AU,-24.87,113.63,71.6,78,90,19.46,1603018716
151,Uusikaupunki,FI,60.8,21.41,41.0,65,75,8.05,1603018716
152,Chokurdakh,RU,70.63,147.92,21.67,98,97,7.14,1603018716
153,Along,IN,28.17,94.77,77.09,78,2,1.34,1603018716
154,Norman Wells,CA,65.28,-126.83,8.6,84,5,5.82,1603018716
155,Ontario,US,34.06,-117.65,69.8,68,1,1.28,1603018568
156,Tiksi,RU,71.69,128.87,19.71,96,100,15.79,1603018717
157,Kamenka,RU,51.32,42.77,62.01,77,100,18.21,1603018717
158,Padang,ID,-0.95,100.35,81.79,70,87,2.93,1603018717
159,Mezen',RU,65.85,44.24,35.33,94,98,8.43,1603018717
160,Salina Cruz,MX,16.17,-95.2,79.12,64,47,14.83,1603018717
161,El Batey,DO,19.77,-70.52,75.2,94,75,4.7,1603018717
162,Meulaboh,ID,4.14,96.13,80.83,78,97,5.46,1603018717
163,Kruisfontein,ZA,-34.0,24.73,70.0,54,100,11.01,1603018717
164,East London,ZA,-33.02,27.91,69.8,60,20,26.4,1603018603
165,Antsohihy,MG,-14.88,47.99,99.54,18,0,3.09,1603018718
166,Paamiut,GL,61.99,-49.67,41.32,79,90,15.01,1603018718
167,Bandarbeyla,SO,9.49,50.81,84.83,65,0,15.14,1603018718
168,Kourou,GF,5.16,-52.65,77.0,100,20,8.81,1603018718
169,Barrow,US,71.29,-156.79,19.4,79,1,16.11,1603018718
170,Leningradskiy,RU,69.38,178.42,21.31,89,0,8.93,1603018718
171,Lerwick,GB,60.15,-1.15,44.6,65,100,2.24,1603018707
172,Rājāpur,IN,25.38,81.15,92.93,34,0,5.3,1603018719
173,Kailua,US,21.4,-157.74,78.8,88,1,4.23,1603018501
174,Kaeo,NZ,-35.1,173.78,55.99,83,12,1.01,1603018719
175,Olafsvik,IS,64.89,-23.71,39.79,80,29,24.65,1603018628
176,Santa Isabel,BR,-23.32,-46.22,62.6,82,75,9.17,1603018719
177,Hong Kong,HK,22.29,114.16,79.0,76,25,1.99,1603018524
178,Zyryanka,RU,65.75,150.85,21.07,93,69,4.5,1603018720
179,Haapsalu,EE,58.94,23.54,48.0,75,20,8.05,1603018720
180,Coyhaique,CL,-45.58,-72.07,42.8,70,75,9.17,1603018720
181,Sioux Lookout,CA,50.1,-91.92,26.6,92,90,5.82,1603018725
182,Northam,GB,51.03,-4.22,59.0,80,75,3.0,1603018725
183,Mareeba,AU,-17.0,145.43,73.99,78,3,3.36,1603018725
184,Nicolás Bravo,MX,18.45,-88.92,70.45,99,41,2.35,1603018725
185,Meadow Lake,US,34.8,-106.54,54.0,20,1,4.7,1603018725
186,Xining,CN,36.62,101.77,44.31,53,0,4.59,1603018726
187,Codrington,AU,-38.27,141.97,48.04,90,16,7.31,1603018726
188,Berlevåg,NO,70.86,29.09,38.77,74,88,5.19,1603018726
189,Forestville,US,38.85,-76.88,46.4,93,1,2.17,1603018726
190,Kangaatsiaq,GL,68.31,-53.46,37.71,78,100,15.75,1603018726
191,Sabha,LY,27.04,14.43,94.12,11,29,12.93,1603018726
192,Kutum,SD,14.2,24.67,89.82,12,13,15.05,1603018726
193,Pimentel,PE,-6.84,-79.93,61.03,91,47,9.13,1603018727
194,Maţāy,EG,28.42,30.78,91.96,18,0,4.85,1603018727
195,Changji,CN,44.02,87.32,62.6,21,92,2.24,1603018727
196,Yarmouth,US,41.71,-70.23,42.01,86,1,7.36,1603018727
197,Faanui,PF,-16.48,-151.75,78.82,81,5,7.27,1603018727
198,Mount Gambier,AU,-37.83,140.77,51.8,87,90,4.7,1603018727
199,Morant Bay,JM,17.88,-76.41,80.6,83,20,6.93,1603018727
200,Kidal,ML,18.44,1.41,100.09,9,31,13.87,1603018728
201,Kolosovka,RU,56.47,73.61,36.12,77,62,16.62,1603018728
202,Dunedin,NZ,-45.87,170.5,48.99,86,100,1.99,1603018728
203,Torres,BR,-29.34,-49.73,65.82,77,66,7.52,1603018728
204,Cairns,AU,-16.92,145.77,73.99,78,24,3.36,1603018490
205,Luanda,AO,-8.84,13.23,82.4,69,75,3.36,1603018639
206,Córdoba,AR,-31.41,-64.18,75.99,88,20,9.17,1603018728
207,Nakusp,CA,50.25,-117.8,33.01,98,90,1.01,1603018729
208,Lata,PT,40.16,-8.33,73.0,50,83,4.65,1603018729
209,Neepawa,CA,50.23,-99.47,24.8,68,90,16.11,1603018729
210,Micheweni,TZ,-4.97,39.83,83.19,63,25,7.85,1603018729
211,Los Llanos de Aridane,ES,28.66,-17.92,77.0,69,40,18.34,1603018729
212,Gisborne,NZ,-38.65,178.0,55.0,77,10,4.0,1603018562
213,Nchelenge,ZM,-9.35,28.73,87.69,33,0,5.12,1603018729
214,Christchurch,NZ,-43.53,172.63,50.0,93,96,3.36,1603018699
215,Beni Mazar,EG,28.5,30.8,92.12,18,0,5.23,1603018730
216,Zhigansk,RU,66.77,123.37,14.11,96,100,6.15,1603018730
217,Santa Cruz de la Sierra,BO,-17.8,-63.17,73.4,78,40,9.17,1603018577
218,Bambous Virieux,MU,-20.34,57.76,81.0,54,20,12.75,1603018730
219,Minas,UY,-34.38,-55.24,68.0,93,20,9.17,1603018730
220,Taltal,CL,-25.4,-70.48,57.9,70,53,2.48,1603018730
221,Pangnirtung,CA,66.15,-65.71,34.02,80,100,4.41,1603018730
222,Cherskiy,RU,68.75,161.3,20.84,92,77,9.95,1603018731
223,Madimba,TZ,-10.4,40.33,91.4,46,40,5.82,1603018731
224,Kwang Binh,VN,17.48,106.6,77.29,88,100,7.9,1603018731
225,Bayan,CN,46.08,127.4,46.0,33,16,4.45,1603018731
226,Srednekolymsk,RU,67.45,153.68,24.33,98,95,7.63,1603018731
227,Leshukonskoye,RU,64.9,45.76,35.01,91,99,6.53,1603018736
228,Viedma,AR,-40.81,-63.0,61.0,41,6,3.0,1603018736
229,Gunjur,GM,13.2,-16.73,87.8,79,75,5.82,1603018736
230,Longyearbyen,SJ,78.22,15.64,26.6,73,20,8.05,1603018737
231,Upernavik,GL,72.79,-56.15,34.77,93,100,15.39,1603018737
232,Villa María,AR,-32.41,-63.24,77.0,73,0,7.0,1603018737
233,Atar,MR,20.52,-13.05,95.54,19,0,7.38,1603018737
234,Rondonópolis,BR,-16.47,-54.64,83.88,49,93,3.87,1603018737
235,Lawrenceburg,US,38.04,-84.9,50.0,61,90,5.82,1603018737
236,Goiatuba,BR,-18.01,-49.35,75.49,70,63,14.03,1603018737
237,Urengoy,RU,65.97,78.37,19.2,95,100,18.88,1603018738
238,Sitka,US,57.05,-135.33,41.0,60,90,3.36,1603018738
239,Raudeberg,NO,61.99,5.14,45.0,73,74,19.04,1603018738
240,Aginskoye,RU,51.1,114.53,38.55,78,69,8.48,1603018738
241,Gijón,ES,43.54,-5.66,66.99,63,79,5.82,1603018738
242,Iqaluit,CA,63.75,-68.51,32.0,98,90,8.05,1603018738
243,Sheltozero,RU,61.37,35.37,37.81,78,100,9.57,1603018738
244,College,US,64.86,-147.8,21.0,51,85,2.21,1603018739
245,Avilés,ES,43.55,-5.92,66.99,63,73,5.82,1603018739
246,Saint Paul Harbor,US,57.79,-152.41,37.4,81,75,3.36,1603018709
247,Bonavista,CA,48.65,-53.11,48.99,81,67,7.0,1603018739
248,Severo-Kuril'sk,RU,50.68,156.12,45.95,79,96,12.57,1603018739
249,Igarka,RU,67.47,86.58,24.17,97,100,16.04,1603018739
250,Ratnagiri,IN,16.98,73.3,82.15,76,21,7.49,1603018739
251,Aykhal,RU,66.0,111.5,6.8,92,0,4.47,1603018740
252,Kolyubakino,RU,55.67,36.53,46.4,87,75,22.37,1603018740
253,Anamur,TR,36.08,32.84,82.4,61,81,6.93,1603018740
254,Umba,RU,66.69,34.34,34.43,89,100,19.48,1603018740
255,Mirebalais,HT,18.83,-72.11,77.0,83,54,9.17,1603018740
256,Sola,VU,-13.88,167.55,80.04,76,0,18.72,1603018740
257,Khatanga,RU,71.97,102.5,8.17,87,8,8.68,1603018741
258,Tumsar,IN,21.38,79.73,85.75,74,11,3.13,1603018741
259,Faya,SA,18.39,42.45,77.0,11,20,4.7,1603018741
260,Satipo,PE,-11.25,-74.64,69.22,79,58,1.81,1603018742
261,Aniva,RU,46.71,142.53,39.2,93,20,6.71,1603018742
262,Soyo,AO,-6.13,12.37,82.4,78,75,6.93,1603018742
263,Acaraú,BR,-2.89,-40.12,83.01,58,51,17.2,1603018743
264,Tegul'det,RU,57.31,88.17,33.64,86,60,12.17,1603018743
265,Mmabatho,ZA,-25.85,25.63,93.2,16,0,11.41,1603018743
266,Salta,AR,-24.79,-65.41,57.2,82,0,3.36,1603018589
267,Sainte-Marie,RE,-20.9,55.55,78.8,65,90,17.22,1603018743
268,Guilin,CN,25.28,110.29,66.2,63,75,8.95,1603018743
269,San Jose,US,37.34,-121.89,66.0,45,1,6.93,1603018568
270,Margate,GB,51.38,1.39,55.0,80,90,3.0,1603018743
271,Altamira,BR,-3.2,-52.21,76.51,84,38,5.99,1603018508
272,Wamba,NG,8.93,8.6,87.22,58,10,4.59,1603018749
273,Moose Factory,CA,51.26,-80.61,33.8,100,90,10.29,1603018749
274,Port Hawkesbury,CA,45.62,-61.35,46.99,70,1,11.41,1603018750
275,Vila Franca do Campo,PT,37.72,-25.43,62.6,59,20,5.82,1603018750
276,Tura,IN,25.52,90.22,78.91,89,22,0.78,1603018750
277,Nantucket,US,41.28,-70.1,54.0,54,1,6.93,1603018750
278,Bolu Province,TR,40.67,31.58,71.02,45,79,6.29,1603018750
279,Izumo,JP,35.37,132.77,57.2,76,20,2.24,1603018751
280,Souillac,MU,-20.52,57.52,80.6,54,20,12.75,1603018751
281,Zhalantun,CN,48.0,122.72,39.45,63,16,5.26,1603018751
282,Milyutinskaya,RU,48.63,41.67,73.45,47,100,15.86,1603018751
283,Muros,ES,42.78,-9.06,64.99,72,75,5.82,1603018751
284,Beringovskiy,RU,63.05,179.32,35.83,81,100,5.5,1603018751
285,Dongsheng,CN,39.82,109.98,46.0,47,0,6.73,1603018751
286,Kahului,US,20.89,-156.47,78.8,69,1,5.82,1603018752
287,Hambantota,LK,6.12,81.12,93.2,52,20,16.11,1603018752
288,Geraldton,AU,-28.77,114.6,69.8,68,25,11.41,1603018752
289,Gamboula,CF,4.12,15.14,85.46,59,90,4.07,1603018752
290,Fairbanks,US,64.84,-147.72,21.0,48,84,2.13,1603018752
291,Vila,PT,42.03,-8.16,63.0,71,74,1.99,1603018752
292,Toora-Khem,RU,52.47,96.11,38.68,74,100,2.08,1603018752
293,Lompoc,US,34.64,-120.46,57.2,87,1,4.09,1603018502
294,Suleja,NG,9.18,7.18,84.2,66,75,8.05,1603018753
295,Lavrentiya,RU,65.58,-171.0,35.94,88,60,4.56,1603018753
296,Garh Maharaja,PK,30.83,71.91,97.56,9,0,7.07,1603018753
297,Lavras,BR,-21.25,-45.0,62.69,69,93,10.6,1603018753
298,Salalah,OM,17.02,54.09,93.2,26,2,12.75,1603018655
299,Baripāda,IN,21.93,86.72,86.77,71,100,3.51,1603018754
300,Necochea,AR,-38.55,-58.74,68.0,82,37,7.0,1603018754
301,Moengo,SR,5.62,-54.4,79.12,89,63,3.47,1603018754
302,Kabompo,ZM,-13.59,24.2,94.24,13,0,6.89,1603018754
303,Prykolotne,UA,50.16,37.35,58.03,54,0,15.97,1603018754
304,Zapolyarnyy,RU,69.42,30.81,26.6,100,20,5.82,1603018755
305,Tautira,PF,-17.73,-149.15,75.2,83,97,3.36,1603018755
306,Santa Marinella,IT,42.03,11.85,57.99,68,0,3.8,1603018755
307,Solnechnyy,RU,50.72,136.63,29.16,77,36,7.96,1603018755
308,Saint Anthony,US,45.02,-93.22,33.8,83,1,8.05,1603018755
309,Lafia,NG,8.48,8.52,86.9,63,67,4.74,1603018755
310,Namatanai,PG,-3.67,152.43,80.76,79,100,7.45,1603018756
311,Pevek,RU,69.7,170.31,24.91,94,29,17.45,1603018756
312,Bariloche,AR,-41.15,-71.31,41.0,75,40,21.92,1603018756
313,Tete,MZ,-16.16,33.59,91.4,29,0,8.05,1603018757
314,Millville,US,39.4,-75.04,48.0,93,1,4.88,1603018757
315,Ambon City,ID,-3.7,128.18,78.8,88,40,5.82,1603018757
316,Dongxing,CN,45.37,130.8,37.06,74,4,7.0,1603018757
317,Province of Mantua,IT,45.17,10.78,63.0,82,0,1.99,1603018757
318,Bilibino,RU,68.05,166.44,14.02,92,93,2.75,1603018763
319,Cambridge,CA,43.36,-80.31,51.01,57,75,11.41,1603018753
320,Rivers,CA,50.03,-100.24,24.8,68,90,16.11,1603018763
321,Russell,US,32.35,-85.2,53.6,81,40,6.13,1603018763
322,Tuatapere,NZ,-46.13,167.68,43.99,80,99,1.83,1603018763
323,Tubualá,PA,9.52,-79.03,77.0,94,40,6.93,1603018764
324,Lázaro Cárdenas,MX,17.96,-102.2,76.8,87,80,3.53,1603018764
325,Sangar,RU,63.92,127.47,15.94,96,99,9.22,1603018764
326,Miyako,JP,39.64,141.95,53.4,75,67,5.55,1603018764
327,Sturgis,US,41.8,-85.42,51.8,61,90,11.41,1603018764
328,Bud,US,39.45,-86.18,53.01,61,90,3.36,1603018764
329,Vao,NC,-22.67,167.48,71.28,78,17,16.71,1603018765
330,Aripuanã,BR,-9.17,-60.63,75.33,87,98,1.14,1603018765
331,São Gabriel da Cachoeira,BR,-0.13,-67.09,73.81,94,28,1.68,1603018765
332,Port Moresby,PG,-9.44,147.18,80.6,78,90,3.36,1603018765
333,Eureka,US,40.8,-124.16,48.2,100,1,3.36,1603018765
334,Safford,US,32.83,-109.71,59.0,22,1,4.7,1603018727
335,Varhaug,NO,58.61,5.65,45.0,70,95,7.0,1603018765
336,Yaan,NG,7.38,8.57,82.89,70,96,6.35,1603018766
337,Uyovu,TZ,-3.28,31.53,85.55,32,38,6.13,1603018766
338,Yumen,CN,40.28,97.2,48.54,39,0,9.48,1603018766
339,Port Augusta,AU,-32.5,137.77,57.2,71,0,18.34,1603018766
340,Elizabeth City,US,36.29,-76.25,62.01,87,1,6.93,1603018766
341,Capitán Bado,PY,-23.27,-55.53,70.41,67,72,14.47,1603018766
342,Yangi Marg`ilon,UZ,40.43,71.72,71.6,24,0,3.4,1603018767
343,Belaya Gora,RU,68.53,146.42,21.58,98,89,10.45,1603018767
344,Siocon,PH,7.71,122.14,79.09,86,100,6.26,1603018767
345,Nyurba,RU,63.28,118.33,16.41,93,0,2.24,1603018767
346,Buzdyak,RU,54.58,54.55,45.82,54,82,14.23,1603018767
347,Saint-Pierre,RE,-21.34,55.48,80.6,65,75,17.22,1603018767
348,Cap Malheureux,MU,-19.98,57.61,81.0,56,1,8.99,1603018768
349,Abu Dhabi,AE,24.47,54.37,95.0,32,0,11.41,1603018605
350,Aklavik,CA,68.22,-135.01,12.2,78,20,8.05,1603018768
351,Tikhvin,RU,59.65,33.53,36.0,79,100,4.54,1603018673
352,Găgeşti,RO,46.33,27.97,60.4,41,12,7.34,1603018768
353,Acapulco de Juárez,MX,16.86,-99.89,77.43,74,54,4.32,1603018768
354,Kumbo,CM,6.2,10.67,74.08,54,45,7.38,1603018768
355,Tazovsky,RU,67.47,78.7,19.27,96,99,17.07,1603018768
356,Linxia Chengguanzhen,CN,35.6,103.21,46.71,54,24,2.42,1603018769
357,Marsá Maţrūḩ,EG,31.35,27.25,86.0,42,0,5.82,1603018769
358,Lorengau,PG,-2.02,147.27,82.27,79,73,8.5,1603018769
359,Praia,CV,14.92,-23.51,84.2,74,75,9.17,1603018769
360,Bhadrāchalam,IN,17.67,80.88,85.93,83,96,1.07,1603018769
361,Cabra,ES,37.47,-4.44,77.0,26,24,1.01,1603018770
362,Zonguldak,TR,41.25,31.83,71.87,53,88,7.65,1603018770
363,Novaya Ladoga,RU,60.1,32.3,39.0,46,98,10.85,1603018775
364,Tsimmerbude,RU,54.67,20.13,48.99,87,75,11.18,1603018775
365,Huangnihe,CN,43.56,128.02,36.45,78,3,4.14,1603018775
366,Saint-Augustin,CA,51.23,-58.65,44.76,74,75,26.46,1603018775
367,Porto-Novo,BJ,6.5,2.6,82.4,78,40,6.93,1603018776
368,Magadan,RU,59.57,150.8,33.93,94,100,4.76,1603018776
369,Sabang,ID,5.89,95.32,84.0,73,100,21.09,1603018776
370,Krasnokamensk,RU,50.1,118.04,35.51,83,60,7.38,1603018776
371,Kuchera,IN,26.98,73.97,90.41,32,51,9.78,1603018777
372,San Luis de Palenque,CO,5.42,-71.73,72.91,90,73,1.9,1603018777
373,Bardsīr,IR,29.92,56.57,69.8,6,0,6.93,1603018777
374,Biltine,TD,14.53,20.92,99.1,9,6,8.37,1603018777
375,Kulhudhuffushi,MV,6.62,73.07,82.51,78,100,16.82,1603018777
376,Bay City,US,43.59,-83.89,54.0,48,75,14.99,1603018777
377,Ixtapa,MX,20.7,-105.2,81.0,87,60,3.49,1603018778
378,Evensk,RU,61.95,159.23,34.54,84,99,11.52,1603018778
379,Atbasar,KZ,51.8,68.33,44.46,51,0,8.23,1603018778
380,Nelson Bay,AU,-32.72,152.15,66.0,88,75,8.05,1603018778
381,São João da Barra,BR,-21.64,-41.05,73.4,78,68,6.93,1603018777
382,Guangyuan,CN,32.44,105.82,63.0,90,67,5.99,1603018778
383,Zhuanghe,CN,39.7,122.99,57.99,73,0,1.07,1603018779
384,Pouébo,NC,-20.4,164.57,71.01,76,60,9.78,1603018779
385,Genhe,CN,50.78,121.52,28.89,91,2,4.59,1603018779
386,Brae,GB,60.4,-1.35,44.6,65,100,2.24,1603018779
387,Fuzhou,CN,26.06,119.31,71.6,73,75,20.13,1603018780
388,Gambēla,ET,8.25,34.58,74.88,84,96,3.18,1603018780
389,Henties Bay,NA,-22.12,14.28,62.01,84,1,3.0,1603018780
390,Husavik,IS,66.04,-17.34,44.6,70,90,9.17,1603018628
391,Charcas,MX,23.13,-101.12,53.42,91,2,2.44,1603018780
392,Bilma,NE,18.69,12.92,98.76,8,0,2.77,1603018780
393,Gananoque,CA,44.33,-76.17,51.01,64,62,10.0,1603018781
394,Matara,LK,5.95,80.54,83.62,72,34,14.79,1603018781
395,Xiongyue,CN,40.18,122.12,57.54,43,0,5.55,1603018781
396,Krasnosel'kup,RU,65.7,82.47,24.15,97,74,21.0,1603018781
397,Veinticinco de Mayo,AR,-35.43,-60.17,73.0,81,0,5.01,1603018781
398,Sechura,PE,-5.56,-80.82,63.77,81,40,8.66,1603018781
399,Tommot,RU,58.96,126.29,14.67,93,84,2.53,1603018782
400,Venado Tuerto,AR,-33.75,-61.97,75.99,60,0,11.01,1603018782
401,Clacton-on-Sea,GB,51.79,1.16,57.99,83,70,6.58,1603018782
402,Hwange,ZW,-18.37,26.5,98.24,9,0,8.32,1603018782
403,Baruun-Urt,MN,46.68,113.28,42.6,57,49,11.41,1603018782
404,Sørland,NO,67.67,12.69,39.2,66,75,14.99,1603018782
405,North Canton,US,40.88,-81.4,51.8,46,90,16.11,1603018762
406,Dickinson,US,29.46,-95.05,73.99,88,1,3.36,1603018783
407,Dumbéa,NC,-22.15,166.45,68.0,72,2,1.12,1603018788
408,Kabwe,ZM,-14.45,28.45,89.6,13,12,9.35,1603018788
409,Mayo,US,38.89,-76.51,46.4,100,1,6.02,1603018741
410,Ulagan,RU,50.63,87.96,40.87,65,100,3.0,1603018788
411,Severomuysk,RU,56.15,113.43,22.17,99,94,2.1,1603018788
412,Alyangula,AU,-13.85,136.42,82.4,69,40,5.82,1603018789
413,Nizhnyaya Poyma,RU,56.16,97.19,50.0,64,100,8.23,1603018789
414,Sambava,MG,-14.27,50.17,80.51,52,0,14.16,1603018789
415,Bereda,ES,43.27,-7.54,69.01,92,46,1.99,1603018789
416,Urusha,RU,54.05,122.9,26.8,87,100,1.34,1603018789
417,Moundou,TD,8.57,16.08,93.13,49,17,2.13,1603018789
418,Chifeng,CN,42.27,118.96,51.62,43,22,5.82,1603018789
419,Atambua,ID,-9.11,124.89,77.18,77,50,1.3,1603018789
420,Tevriz,RU,57.51,72.4,35.13,81,98,12.24,1603018790
421,Wattegama,LK,6.8,81.48,93.2,52,20,16.11,1603018790
422,Kloulklubed,PW,7.04,134.26,80.6,83,90,5.82,1603018790
423,Hithadhoo,MV,-0.6,73.08,83.46,78,86,20.27,1603018790
424,Thinadhoo,MV,0.53,72.93,83.48,78,64,20.58,1603018790
425,Joshīmath,IN,30.57,79.57,67.59,26,16,5.77,1603018791
426,Port-Gentil,GA,-0.72,8.78,86.0,66,75,11.41,1603018791
427,Ancud,CL,-41.87,-73.82,46.99,87,75,11.41,1603018791
428,Anadyr,RU,64.75,177.48,21.2,85,71,2.24,1603018791
429,Lokosovo,RU,61.13,74.82,29.5,92,100,16.11,1603018791
430,Sembakung,ID,3.82,117.25,76.78,94,96,3.06,1603018792
431,Tambovka,RU,50.1,128.05,33.8,37,20,4.47,1603018792
432,Dingle,PH,11.0,122.67,78.62,88,85,6.44,1603018792
433,Smithers,CA,54.78,-127.17,32.0,94,90,8.05,1603018744
434,Golden,US,39.76,-105.22,42.01,86,90,3.36,1603018573
435,La Peca,PE,-5.61,-78.44,65.64,82,56,2.24,1603018793
436,Bahía Honda,CU,22.9,-83.16,76.66,86,0,6.93,1603018793
437,Koumac,NC,-20.57,164.28,71.51,76,49,4.05,1603018793
438,Laguna,US,38.42,-121.42,61.0,51,1,2.39,1603018793
439,Kotka,FI,60.47,26.95,41.0,93,90,4.7,1603018793
440,Marawi,PH,8.0,124.29,80.01,88,100,1.99,1603018793
441,Ayagoz,KZ,47.97,80.44,58.19,34,92,9.71,1603018794
442,Talnakh,RU,69.49,88.4,24.8,79,75,17.9,1603018794
443,Naushahro Firoz,PK,26.84,68.12,101.57,8,2,5.48,1603018794
444,Nikolayevsk-on-Amur,RU,53.14,140.73,30.04,96,88,23.76,1603018794
445,Constitución,CL,-35.33,-72.42,51.42,83,0,5.93,1603018794
446,Vega de Alatorre,MX,20.03,-96.63,73.11,78,46,5.91,1603018795
447,Severnyy,RU,50.68,36.55,51.8,66,75,13.42,1603018795
448,Gijang,KR,35.24,129.21,64.4,52,58,5.82,1603018678
449,Buin,CL,-33.73,-70.75,64.0,93,0,2.24,1603018795
450,Smidovich,RU,48.6,133.82,33.66,77,8,9.51,1603018795
451,Novo Oriente,BR,-5.53,-40.77,80.11,59,72,6.93,1603018795
452,Huarmey,PE,-10.07,-78.15,62.01,87,88,5.37,1603018795
453,Fuerte Olimpo,PY,-21.04,-57.87,75.33,83,65,2.33,1603018795
454,Pangody,RU,65.85,74.49,25.39,94,99,18.25,1603018801
455,Puri,IN,19.8,85.85,78.8,100,90,4.7,1603018801
456,Victoria Point,AU,-27.58,153.3,72.0,84,13,5.99,1603018801
457,Rocha,UY,-34.48,-54.33,65.05,83,65,8.39,1603018802
458,Verkhnyaya Inta,RU,65.98,60.31,30.51,95,100,16.37,1603018803
459,Mogadishu,SO,2.04,45.34,86.0,62,75,16.11,1603018803
460,Inverell,AU,-29.78,151.12,59.0,97,100,1.01,1603018804
461,Antofagasta,CL,-23.65,-70.4,57.2,87,90,2.24,1603018769
462,Kroya,ID,-7.63,109.25,66.99,81,56,9.33,1603018806
463,Isangel,VU,-19.55,169.27,70.84,70,0,7.4,1603018806
464,Zverinogolovskoye,RU,54.46,64.85,42.22,61,18,9.17,1603018807
465,Zhongshu,CN,24.52,103.77,54.12,88,99,5.01,1603018808
466,Ballina,AU,-28.87,153.57,69.8,83,90,6.93,1603018808
467,Inhambane,MZ,-23.86,35.38,82.4,51,40,13.87,1603018809
468,Departamento de Maldonado,UY,-34.67,-54.92,68.0,93,20,9.17,1603018809
469,Bentiu,SS,9.23,29.83,90.01,50,100,5.03,1603018809
470,Murwillumbah,AU,-28.32,153.4,72.0,78,83,13.87,1603018809
471,Gorontalo,ID,0.54,123.06,76.1,87,100,2.84,1603018810
472,Ostrovnoy,RU,68.05,39.51,36.59,79,38,11.65,1603018810
473,Zhangye,CN,38.93,100.45,52.16,34,0,4.56,1603018810
474,San Borja,BO,-14.82,-66.85,76.17,69,1,3.15,1603018811
475,Gimli,CA,50.63,-96.99,28.99,98,59,5.01,1603018811
476,Medvode,SI,46.13,14.43,57.0,81,40,2.24,1603018811
477,Colac,AU,-38.33,143.58,45.0,96,62,5.08,1603018812
478,Kissidougou,GN,9.18,-10.1,85.48,66,0,0.76,1603018812
479,Luena,AO,-11.78,19.92,82.4,61,40,6.93,1603018813
480,Cayenne,GF,4.93,-52.33,77.0,100,20,9.48,1603018813
481,Marzuq,YE,14.4,46.47,83.91,14,0,11.07,1603018813
482,Natal,BR,-5.79,-35.21,77.0,83,40,8.05,1603018814
483,Hurghada,EG,27.26,33.81,87.8,43,0,13.87,1603018814
484,Morrinhos,BR,-17.73,-49.1,75.06,72,45,11.25,1603018814
485,Nazas,MX,25.23,-104.13,63.43,47,1,2.1,1603018814
486,Caravelas,BR,-17.71,-39.25,75.6,72,86,8.37,1603018815
487,Yibin,CN,28.77,104.62,59.22,85,100,2.3,1603018816
488,Menongue,AO,-14.66,17.69,94.96,16,1,9.86,1603018816
489,Port Hope,US,43.94,-82.71,52.0,48,90,16.11,1603018816
490,Breaza,RO,45.18,25.67,57.99,55,78,1.01,1603018816
491,Luau,AO,-10.71,22.22,88.93,33,0,6.44,1603018816
492,Merrill,US,45.18,-89.68,35.6,97,40,4.7,1603018817
493,Callaguip,PH,18.07,120.49,86.0,70,40,9.17,1603018817
494,Dubrovka,RU,53.69,33.51,39.2,86,75,13.42,1603018818
495,Prince Rupert,CA,54.32,-130.32,41.0,100,90,4.7,1603018818
496,Mariehamn,AX,60.1,19.93,41.0,76,75,14.99,1603018819
497,Sinnamary,GF,5.38,-52.95,82.36,77,40,10.4,1603018819
498,Wanlaweyn,SO,2.62,44.89,90.59,43,60,14.61,1603018819
499,Cabedelo,BR,-6.98,-34.83,78.8,78,20,8.05,1603018825
500,Yenagoa,NG,4.92,6.26,88.18,60,85,4.21,1603018825
501,San Juan,AR,-31.54,-68.54,78.12,30,0,2.17,1603018825
502,Namwala,ZM,-15.75,26.44,94.68,10,2,8.75,1603018826
503,Juneau,US,58.3,-134.42,35.01,86,20,6.08,1603018792
504,Vestmannaeyjar,IS,63.44,-20.27,44.6,87,90,20.8,1603018826
505,Ténenkou,ML,14.46,-4.92,101.77,14,1,14.72,1603018827
506,Shwebo,MM,22.57,95.7,83.77,70,74,3.47,1603018827
507,Campo Formoso,BR,-10.51,-40.32,70.25,75,91,11.25,1603018827
508,Mamlyutka,KZ,54.94,68.54,42.8,45,0,13.42,1603018828
509,Sidi Ali,DZ,36.1,0.42,69.62,39,15,6.64,1603018828
510,Port Said,EG,31.26,32.28,82.4,58,40,6.93,1603018828
511,Mananjary,MG,-21.22,48.33,74.14,84,83,9.13,1603018828
512,Kaffrine,SN,14.11,-15.55,87.8,74,75,6.93,1603018829
513,Rome,US,43.21,-75.46,37.0,74,1,5.82,1603018565
514,Cabo San Lucas,MX,22.89,-109.91,78.01,89,6,7.4,1603018724
515,San Pedro de Cartago,CO,1.55,-77.12,54.09,89,88,3.96,1603018829
516,Anloga,GH,5.79,0.9,87.8,66,40,6.93,1603018829
517,Simpang,ID,-1.27,104.08,78.8,87,97,3.15,1603018829
518,Razdolinsk,RU,58.42,94.67,36.61,94,100,14.18,1603018829
519,Hopelchén,MX,19.77,-89.85,70.95,98,5,1.34,1603018830
520,Manama,BH,26.22,50.58,89.6,62,5,13.87,1603018579
521,Rameswaram,IN,9.28,79.3,83.48,73,99,8.57,1603018830
522,Grand Gaube,MU,-20.01,57.66,81.0,56,0,8.99,1603018830
523,Makakilo City,US,21.35,-158.09,78.8,83,40,4.79,1603018830
524,Sítio Novo do Tocantins,BR,-5.52,-47.46,81.45,65,56,6.76,1603018831
525,Orda,RU,57.2,56.91,37.27,79,100,10.92,1603018831
526,Alamogordo,US,32.9,-105.96,57.99,32,1,1.92,1603018624
527,Puerto Ayacucho,VE,5.66,-67.62,74.07,93,99,3.53,1603018831
528,Orichi,RU,58.4,49.06,32.4,98,100,13.51,1603018831
529,Rāvar,IR,31.27,56.81,75.34,12,0,9.42,1603018832
530,Brownwood,US,31.71,-98.99,64.4,93,75,6.93,1603018832
531,Alice Springs,AU,-23.7,133.88,80.6,51,27,8.05,1603018832
532,Novoagansk,RU,61.94,76.66,27.91,92,100,20.71,1603018833
533,Ust'-Omchug,RU,61.15,149.63,20.32,92,94,1.61,1603018833
534,Mahon,ES,39.89,4.27,66.2,55,20,3.36,1603018833
535,Bull Savanna,JM,17.89,-77.59,76.3,81,63,3.96,1603018833
536,Ust-Kuyga,RU,70.02,135.6,22.03,97,100,5.57,1603018833
537,Anchorage,US,61.22,-149.9,35.01,59,90,6.93,1603018809
538,Tiarei,PF,-17.53,-149.33,75.2,83,91,3.36,1603018833
539,Saint-Joseph,RE,-21.37,55.62,80.6,65,75,17.22,1603018834
540,Schiffdorf,DE,53.53,8.65,53.6,62,75,12.75,1603018834
541,Marystown,CA,47.17,-55.15,55.99,100,97,13.96,1603018834
542,Katsuura,JP,35.13,140.3,62.6,67,20,9.17,1603018834
543,Yuli,NG,9.7,10.27,94.89,40,1,3.2,1603018835
544,Haapiti,PF,-17.57,-149.87,75.2,83,82,3.36,1603018835
545,Sananduva,BR,-27.95,-51.81,60.37,70,67,8.25,1603018835
546,Imeni Poliny Osipenko,RU,52.42,136.49,29.5,79,99,10.27,1603018836
547,Riyadh,SA,24.69,46.72,87.8,14,0,9.17,1603018800
